{
  "scenarios": [
    {
      "name": "ancient-blood",
      "quests": [
        {
          "order": 0,
          "secret": "6a5fc6c0f8ec",
          "fictionalClock": "091725ZSEP20",
          "failurePage": "s1q0_failure_shouldNotBeUsed",
          "successPage": "quests/s1_introduction_defe34c03ace"
        },
        {
          "order": 1,
          "name": "Kyltti",
          "secret": "656a0b0924da",
          "fictionalClock": "091725ZSEP20",
          "location": {
            "lat": 60.287580,
            "lon": 24.903290
          },
          "failurePage": "s1q1_failure_shouldNotBeUsed",
          "successPage": "quests/s1q1_success_dd19b04ceeaf"
        },
        {
          "order": 2,
          "name": "Silta",
          "secret": "138d0d22b893",
          "fictionalClock": "091725ZSEP20",
          "location": {
            "lat": 60.290167,
            "lon": 24.899750
          },
          "countdown": 1600,
          "fictionalCountdown": 13033,
          "failurePage": "quests/s1q2_failure_17d522b044bc",
          "successPage": "quests/s1q2_success_2612a7062d96"
        },
        {
          "order": 3,
          "name": "Kuusi",
          "secret": "a41e1e8068c3",
          "fictionalClock": "091725ZSEP20",
          "location": {
            "lat": 60.292950,
            "lon": 24.898010
          },
          "countdown": 1600,
          "fictionalCountdown": 13033,
          "failurePage": "quests/s1q3_failure_c127bdc2e9cf",
          "successPage": "quests/s1q3_success_8f9874319882"
        },
        {
          "order": 4,
          "name": "Huippu",
          "secret": "6021c7d15c44",
          "fictionalClock": "091725ZSEP20",
          "location": {
            "lat": 60.291330,
            "lon": 24.912280
          },
          "countdown": 1600,
          "fictionalCountdown": 13033,
          "failurePage": "quests/s1q4_failure_c127bdc2e9cf",
          "successPage": "quests/s1q4_success_f512e6bf09db"
        },
        {
          "order": 5,
          "name": "Kelo",
          "secret": "365abfc7bd8b",
          "fictionalClock": "091725ZSEP20",
          "location": {
            "lat": 60.291610,
            "lon": 24.924240
          },
          "countdown": 1600,
          "fictionalCountdown": 13033,
          "failurePage": "quests/s1q5_failure_c127bdc2e9cf",
          "successPage": "quests/s1q5_success_bbc1c03a55c5"
        },
        {
          "order": 6,
          "name": "Sahkotolppa",
          "secret": "284e23571ac2",
          "fictionalClock": "091725ZSEP20",
          "location": {
            "lat": 60.289810,
            "lon": 24.931740
          },
          "countdown": 1600,
          "fictionalCountdown": 13033,
          "failurePage": "quests/s1q6_failure_c127bdc2e9cf",
          "successPage": "quests/s1q6_success_26c1589796e5"
        },
        {
          "order": 7,
          "name": "Helikopteri",
          "secret": "37cbeadad9d4",
          "fictionalClock": "091725ZSEP20",
          "location": {
            "lat": 60.287470,
            "lon": 24.918140
          },
          "countdown": 1600,
          "fictionalCountdown": 13033,
          "failurePage": "quests/s1q7_failure_c127bdc2e9cf",
          "successPage": "quests/s1q7_success_bf521a18fd10"
        },
        {
          "order": 8,
          "name": "Huippu",
          "secret": "e359dec5aa1c",
          "fictionalClock": "091725ZSEP20",
          "location": {
            "lat": 60.291330,
            "lon": 24.912280
          },
          "countdown": 1600,
          "fictionalCountdown": 13033,
          "failurePage": "quests/s1q8_failure_c127bdc2e9cf",
          "successPage": "quests/s1q8_success_8977523fdb9e"
        },
        {
          "order": 9,
          "name": "Siilo",
          "secret": "198aabd6d865",
          "fictionalClock": "091725ZSEP20",
          "location": {
            "lat": 60.287900,
            "lon": 24.898810
          },
          "countdown": 1600,
          "fictionalCountdown": 13033,
          "failurePage": "quests/s1q9_failure_c127bdc2e9cf",
          "successPage": "quests/s1q9_success_ced4d047b80e"
        }
      ]
    },
    {
      "name": "testing-dummy",
      "quests": [
        {
          "order": 0,
          "secret": "c8f101246f60",
          "fictionalClock": "091725ZSEP20",
          "failurePage": "testing_0_fail",
          "successPage": "quests/testing_0_success"
        },
        {
          "order": 1,
          "secret": "d3b07d1eea7f",
          "fictionalClock": "091725ZSEP20",
          "location": {
            "lat": 60.167251,
            "lon": 24.943512
          },
          "failurePage": "testing_1_fail",
          "successPage": "quests/testing_1_success"
        },
        {
          "order": 2,
          "secret": "a5fc2243ea7b",
          "fictionalClock": "091725ZSEP20",
          "location": {
            "lat": 60.204638,
            "lon": 24.655577
          },
          "countdown": 60,
          "fictionalCountdown": 13033,
          "failurePage": "quests/testing_2_fail",
          "successPage": "quests/testing_2_success"
        },
        {
          "order": 3,
          "secret": "65baf038164a",
          "fictionalClock": "091725ZSEP20",
          "location": {
            "lat": 60.292966,
            "lon": 25.037099
          },
          "countdown": 120,
          "fictionalCountdown": 300,
          "failurePage": "quests/testing_3_fail",
          "successPage": "quests/testing_3_success"
        },
        {
          "order": 4,
          "sharedQrWithQuest": 2,
          "secret": "65baf0aaaa4a",
          "fictionalClock": "091725ZSEP20",
          "location": {
            "lat": 0.0,
            "lon": 0.0
          },
          "countdown": 120,
          "fictionalCountdown": 300,
          "failurePage": "quests/testing_4_fail",
          "successPage": "quests/testing_4_success"
        },
        {
          "order": 5,
          "secret": "abbddbbccv",
          "fictionalClock": "091725ZSEP20",
          "location": {
            "lat": 60.392966,
            "lon": 26.037099
          },
          "countdown": 120,
          "fictionalCountdown": 300,
          "failurePage": "quests/testing_5_fail",
          "successPage": "quests/testing_5_success"
        }
      ]
    }
  ]
}